City_ID,City,Lat,Lng,Max Temp,Humidity,Cloudiness,Wind Speed,Country,Date
0,pandan,14.0453,124.1694,31.56,59,73,1.68,PH,1715403913
1,west island,-12.1568,96.8225,27.43,83,30,7.27,CC,1715403913
2,grytviken,-54.2811,-36.5092,-0.19,88,100,3.36,GS,1715403913
3,yanam,16.7333,82.2167,35.12,49,14,3.32,IN,1715403913
4,taroa,8.7058,171.2275,26.08,89,100,8.2,MH,1715403913
5,kailua-kona,19.6406,-155.9956,25.98,68,0,8.23,US,1715403913
6,island harbour,50.724,-1.2758,12.74,91,93,0.45,GB,1715403914
7,esquel,-42.9,-71.3167,-1.38,88,55,0.73,AR,1715403676
8,zelenogorsk,56.1147,94.5861,22.78,50,100,6.3,RU,1715403914
9,nova odesa,47.3078,31.7851,13.9,49,55,2.52,UA,1715403637
10,tralee,52.2704,-9.7026,8.29,89,41,2.16,IE,1715403914
11,mejit,10.2753,170.8646,27.71,80,100,6.33,MH,1715403914
12,mahanoro,-19.9,48.8,22.48,88,39,2.08,MG,1715403914
13,brisas de zicatela,15.8369,-97.0419,26.37,69,97,2.21,MX,1715403915
14,san juan de miraflores,-12.1629,-76.9635,20.09,79,82,3.08,PE,1715403915
15,puerto baquerizo moreno,-0.9,-89.6,23.01,90,89,2.58,EC,1715403915
16,rio gallegos,-51.6226,-69.2181,-1.97,100,100,4.12,AR,1715403723
17,trairi,-3.2778,-39.2689,24.94,88,84,2.61,BR,1715403915
18,port blair,11.6667,92.75,33.02,70,40,4.63,IN,1715403915
19,hawaiian paradise park,19.5933,-154.9731,22.8,97,75,2.06,US,1715403915
20,isafjordur,66.0755,-23.124,3.42,96,100,3.19,IS,1715403915
21,tsiombe,-25.3,45.4833,22.37,63,0,2.96,MG,1715403915
22,muang xay,20.7,101.9833,34.98,33,5,2.42,LA,1715403916
23,adamstown,-25.066,-130.1015,22.35,87,52,6.55,PN,1715403916
24,atafu village,-8.5421,-172.5159,29.57,74,50,4.72,TK,1715403916
25,blackmans bay,-43.0167,147.3167,14.85,78,44,0.45,AU,1715403916
26,redencao,-4.2258,-38.7306,23.3,94,72,0.21,BR,1715403916
27,wakimachi,34.0667,134.15,23.9,33,23,0.98,JP,1715403826
28,georgetown,5.4112,100.3354,27.96,89,40,2.24,MY,1715403899
29,sikonge,-5.6333,32.7667,19.06,82,50,2.42,TZ,1715403916
30,san patricio,28.017,-97.5169,27.69,89,39,3.6,US,1715403916
31,huarmey,-10.0681,-78.1522,19.53,88,54,3.29,PE,1715403917
32,edinburgh of the seven seas,-37.0676,-12.3116,17.23,90,100,13.29,SH,1715403917
33,jamestown,42.097,-79.2353,8.17,97,0,1.54,US,1715403881
34,umm kaddadah,13.6017,26.6876,26.99,6,100,3.29,SD,1715403917
35,ilulissat,69.2167,-51.1,-4.99,86,40,1.54,GL,1715403917
36,nuuk,64.1835,-51.7216,-1.66,86,100,3.6,GL,1715403917
37,wailua homesteads,22.0669,-159.378,25.24,83,20,4.63,US,1715403917
38,port-aux-francais,-49.35,70.2167,5.12,71,33,12.64,TF,1715403917
39,narvik,68.4384,17.4272,3.67,92,100,2.11,NO,1715403918
40,yellowknife,62.456,-114.3525,3.56,97,100,8.75,CA,1715403674
41,tikhvin,59.6451,33.5294,4.01,90,97,4.36,RU,1715403918
42,tabas,33.5959,56.9244,24.65,22,0,0.74,IR,1715403918
43,urucara,-2.5364,-57.76,23.58,98,76,0.95,BR,1715403918
44,rongelap,11.1635,166.8941,27.28,81,100,6.54,MH,1715403918
45,college,64.8569,-147.8028,10.6,30,75,3.6,US,1715403918
46,cabo san lucas,22.8909,-109.9124,23.67,60,52,5.69,MX,1715403881
47,pathein,16.7833,94.7333,38.39,32,7,1.95,MM,1715403875
48,achinsk,56.2694,90.4993,15.39,56,100,3.58,RU,1715403918
49,vernon,50.2581,-119.2691,18.12,60,57,1.79,CA,1715403854
50,iqaluit,63.7506,-68.5145,-0.15,93,100,5.14,CA,1715403678
51,namibe,-15.1961,12.1522,21.74,83,1,1.74,AO,1715403919
52,freeport,40.6576,-73.5832,10.98,86,100,2.24,US,1715403885
53,albany,42.6001,-73.9662,10.25,88,99,0.74,US,1715403759
54,weno,7.4515,151.8468,30.97,74,40,4.12,FM,1715403919
55,san antonio de pale,-1.4014,5.6325,26.45,89,72,4.13,GQ,1715403919
56,ola,59.5833,151.2833,3.41,79,43,3.99,RU,1715403919
57,lazaro cardenas,17.9583,-102.2,23.09,77,53,1.21,MX,1715403894
58,geraldton,-28.7667,114.6,30.23,32,0,3.09,AU,1715403920
59,broome,42.2506,-75.833,9.62,96,100,1.54,US,1715403920
60,aberystwyth,52.4155,-4.0829,11.51,89,92,2.93,GB,1715403920
61,monrovia,6.3005,-10.7969,26.79,85,99,1.15,LR,1715403920
62,antsiranana,-12.2787,49.2917,25.42,69,75,5.14,MG,1715403920
63,tema,5.667,-0.0166,27.23,94,20,3.09,GH,1715403920
64,vicuna,-30.0319,-70.7081,6.85,61,100,0.8,CL,1715403680
65,tiksi,71.6872,128.8694,-2.43,91,100,4.0,RU,1715403920
66,ust'-kulom,61.6864,53.6902,1.18,67,98,1.95,RU,1715403921
67,ginir,7.1333,40.7,18.77,68,35,0.58,ET,1715403742
68,petropavlovsk-kamchatsky,53.0452,158.6483,5.33,95,75,6.0,RU,1715403921
69,pariaman,-0.619,100.12,30.41,68,58,3.37,ID,1715403921
70,suva,-18.1416,178.4415,25.71,69,75,3.6,FJ,1715403921
71,trinidad,-14.8333,-64.9,24.29,87,75,1.73,BO,1715403921
72,anshun,26.25,105.9333,19.52,76,94,4.13,CN,1715403921
73,puerto natales,-51.7236,-72.4875,-2.27,93,82,1.79,CL,1715403921
74,kimbe,-5.5502,150.1429,29.43,81,79,1.25,PG,1715403922
75,port elizabeth,-33.918,25.5701,15.17,72,0,6.69,ZA,1715403662
76,kingscliff,-28.2667,153.5667,22.63,83,100,4.12,AU,1715403922
77,victoria,22.2855,114.1577,30.03,80,99,3.13,HK,1715403657
78,glendive,47.1053,-104.7125,14.86,71,0,5.14,US,1715403922
79,ushuaia,-54.8,-68.3,2.81,70,0,6.17,AR,1715403459
80,bethel,41.3712,-73.414,8.17,85,75,0.45,US,1715403729
81,dangriga,16.9692,-88.2321,27.66,88,92,3.78,BZ,1715403922
82,tazovsky,67.4667,78.7,-0.36,99,100,1.82,RU,1715403923
83,hassi messaoud,31.6804,6.0729,17.92,45,0,2.06,DZ,1715403923
84,belmonte,-15.8631,-38.8828,25.12,88,75,2.27,BR,1715403712
85,sao vicente,-23.9631,-46.3919,26.82,26,100,1.08,BR,1715403730
86,haiku-pauwela,20.9219,-156.3051,22.8,89,100,3.09,US,1715403923
87,colares,38.7992,-9.4469,16.1,86,3,4.92,PT,1715403923
88,mishelevka,52.8575,103.1719,22.13,23,36,2.18,RU,1715403923
89,inonu,37.3167,33.7667,15.42,42,0,14.44,TR,1715403923
90,tindouf,27.6711,-8.1474,24.25,35,0,5.14,DZ,1715403923
91,anadyr,64.75,177.4833,-0.72,74,75,2.0,RU,1715403924
92,holualoa,19.6228,-155.9522,23.91,68,0,8.23,US,1715403924
93,suntar,62.1444,117.6319,5.2,38,87,1.61,RU,1715403924
94,saldanha,-33.0117,17.9442,10.03,73,86,1.31,ZA,1715403924
95,waitangi,-43.9535,-176.5597,9.34,83,100,4.02,NZ,1715403924
96,longyearbyen,78.2186,15.6401,-0.09,69,75,10.29,SJ,1715403797
97,codrington,-38.2667,141.9667,19.46,58,6,3.58,AU,1715403924
98,udachny,66.4167,112.4,-6.97,88,100,1.18,RU,1715403823
99,hermanus,-34.4187,19.2345,13.65,74,40,2.82,ZA,1715403924
100,port alfred,-33.5906,26.891,16.45,73,38,8.16,ZA,1715403924
101,ribeira grande,38.5167,-28.7,17.65,96,93,6.26,PT,1715403925
102,knyaze-volkonskoye,48.4642,135.4567,7.22,92,100,4.02,RU,1715403925
103,luderitz,-26.6481,15.1594,13.76,60,0,6.0,NA,1715403925
104,shenjiamen,29.9576,122.298,18.9,97,100,5.1,CN,1715403841
105,hovd,48.0056,91.6419,23.75,14,4,2.81,MN,1715403925
106,stanley,54.868,-1.6985,10.84,92,0,0.51,GB,1715403925
107,cascais,38.6979,-9.4215,16.2,85,3,4.92,PT,1715403925
108,ust-nera,64.5667,143.2,4.21,70,100,1.96,RU,1715403925
109,glendale,33.5387,-112.186,27.39,16,0,2.57,US,1715403667
110,carbonear,47.7332,-53.2148,1.45,94,100,4.98,CA,1715403926
111,isla vista,34.4133,-119.861,17.97,86,100,2.06,US,1715403926
112,labrador city,52.9463,-66.9114,-0.46,67,0,2.06,CA,1715403707
113,thompson,55.7435,-97.8558,9.09,66,75,0.0,CA,1715403684
114,coquimbo,-29.9533,-71.3436,10.85,64,0,3.6,CL,1715403926
115,chonchi,-42.6128,-73.8092,3.56,95,38,0.46,CL,1715403926
116,patrocinio,-18.9439,-46.9925,16.84,77,46,1.05,BR,1715403902
117,khandyga,62.6667,135.6,5.02,48,100,1.45,RU,1715403926
118,male,4.1748,73.5089,31.97,74,75,2.06,MV,1715403927
119,alamos,27.0167,-108.9333,25.31,19,42,1.69,MX,1715403927
120,manggar,-2.8833,108.2667,29.82,76,88,5.35,ID,1715403851
121,invercargill,-46.4,168.35,9.45,94,91,2.24,NZ,1715403927
122,ialibu,-6.2821,143.9935,18.04,96,98,0.88,PG,1715403927
123,lompoc,34.6391,-120.4579,13.21,94,100,1.54,US,1715403668
124,margaret river,-33.95,115.0667,19.26,51,0,3.28,AU,1715403927
125,naracoorte,-36.9579,140.7383,18.72,53,98,3.36,AU,1715403927
126,kiamba,5.9894,124.6242,30.12,71,78,3.13,PH,1715403921
127,walvis bay,-22.9575,14.5053,13.94,88,0,0.0,NA,1715403928
128,aykhal,66.0,111.5,-4.67,73,77,2.12,RU,1715403928
129,fort st. john,56.2499,-120.8529,15.94,31,20,9.26,CA,1715403928
130,isangel,-19.55,169.2667,27.06,57,40,4.12,VU,1715403928
131,port lincoln,-34.7333,135.8667,17.33,64,75,3.26,AU,1715403835
132,robore,-18.3333,-59.75,21.96,52,61,1.77,BO,1715403798
133,es castell,39.8795,4.2854,13.38,82,0,3.6,ES,1715403929
134,avarua,-21.2078,-159.775,25.03,94,100,4.12,CK,1715403929
135,al badari,26.9926,31.4155,23.08,21,3,7.56,EG,1715403929
136,dhuusamarreeb,5.535,46.3861,29.72,60,80,4.95,SO,1715403929
137,port shepstone,-30.7414,30.455,20.16,76,90,8.39,ZA,1715403640
138,northam,51.0333,-4.2167,11.33,89,100,3.9,GB,1715403929
139,mil'kovo,55.6078,37.7956,7.08,88,100,4.79,RU,1715403929
140,mount pearl,47.5166,-52.7813,0.74,96,100,4.63,CA,1715403929
141,remire-montjoly,4.9167,-52.2667,25.02,100,40,0.51,GF,1715403930
142,aginskoye,51.1,114.53,10.5,48,88,8.69,RU,1715403930
143,sechura,-5.5569,-80.8222,21.08,77,93,4.62,PE,1715403930
144,coahuayana de hidalgo,18.7,-103.6583,21.46,88,29,1.27,MX,1715403930
145,dudinka,69.4058,86.1778,-4.62,82,72,4.47,RU,1715403876
146,forster,-32.1667,152.5167,17.99,96,100,2.08,AU,1715403930
147,crane,31.3974,-102.3501,20.13,57,100,8.16,US,1715403930
148,bilibino,68.0546,166.4372,1.38,74,98,1.01,RU,1715403930
149,san-pedro,4.7485,-6.6363,26.95,86,99,2.39,CI,1715403930
150,beidao,34.5686,105.8933,22.9,37,98,0.8,CN,1715403931
151,el bauga,18.262,33.9081,32.13,13,27,0.86,SD,1715403931
152,auki,-8.7676,160.7034,27.44,86,94,1.07,SB,1715403931
153,pisco,-13.7,-76.2167,19.03,82,0,4.63,PE,1715403931
154,kumbo,6.2,10.6667,17.03,83,94,0.34,CM,1715403931
155,palmer,42.1584,-72.3287,8.23,73,76,1.3,US,1715403931
156,nassau,40.7507,-73.5829,10.48,88,100,1.54,US,1715403931
157,hasanpur,28.7167,78.2833,35.77,27,21,3.81,IN,1715403931
158,fort bragg,35.139,-79.006,17.75,63,0,2.57,US,1715403931
159,kingston,17.997,-76.7936,28.53,79,20,3.09,JM,1715403717
160,olonkinbyen,70.9221,-8.7187,-2.76,68,75,2.79,SJ,1715403932
161,punta arenas,-53.15,-70.9167,3.06,81,0,7.2,CL,1715403476
162,kodiak,57.79,-152.4072,4.73,93,100,4.63,US,1715403932
163,bredasdorp,-34.5322,20.0403,11.13,77,9,3.21,ZA,1715403932
164,ad dabbah,18.05,30.95,31.11,10,54,2.06,SD,1715403932
165,mamuju,-2.6748,118.8885,29.6,78,14,2.77,ID,1715403932
166,laihia,62.9761,22.0114,5.75,60,0,3.09,FI,1715403932
167,kitimat,54.0524,-128.6534,14.27,77,97,0.95,CA,1715403702
168,ljusdal,61.8288,16.0913,5.45,58,72,0.85,SE,1715403933
169,santa marta,11.2408,-74.199,30.03,78,20,3.09,CO,1715403159
170,dickinson,29.4608,-95.0513,26.17,69,0,4.63,US,1715403933
171,sunyani,7.3399,-2.3268,23.38,98,98,1.78,GH,1715403933
172,lindsay,36.203,-119.0882,23.82,39,0,3.6,US,1715403933
173,bodo,67.28,14.405,5.53,81,0,6.69,NO,1715403795
174,ashland,40.8167,-82.2665,7.98,95,3,1.94,US,1715403655
175,chelno-vershiny,54.4333,51.1,5.36,85,100,7.26,RU,1715403933
176,enewetak,11.3474,162.3373,27.49,76,100,7.36,MH,1715403933
177,dano,11.15,-3.0667,29.68,56,95,3.82,BF,1715403934
178,aasiaat,68.7098,-52.8699,-10.52,92,97,1.81,GL,1715403934
179,whitehorse,60.7161,-135.0538,5.43,41,100,5.14,CA,1715403670
180,iskateley,67.6803,53.1512,-3.32,88,46,3.13,RU,1715403934
181,kiunga,-6.1219,141.2906,28.34,88,75,1.15,PG,1715403934
182,lebu,-37.6167,-73.65,7.63,90,3,2.53,CL,1715403934
183,serenje,-13.2325,30.2352,15.5,82,2,0.88,ZM,1715403934
184,utrik,11.2278,169.8474,27.06,82,100,6.68,MH,1715403934
185,tura,25.5198,90.2201,31.06,51,67,0.91,IN,1715403935
186,fuyuan,46.4333,127.0833,15.78,23,75,8.97,CN,1715403935
187,betioky,-23.7167,44.3833,21.93,60,0,4.96,MG,1715403935
188,katsuren-haebaru,26.3369,127.8719,27.43,69,75,3.09,JP,1715403935
189,ves'yegonsk,58.664,37.2604,2.11,94,97,3.58,RU,1715403935
190,grand-bassam,5.2118,-3.7388,27.98,84,88,1.76,CI,1715403935
191,egilsstadir,65.2653,-14.3948,4.95,93,75,1.54,IS,1715403935
192,pavlovskiy posad,55.7847,38.6506,6.88,97,100,4.25,RU,1715403935
193,hithadhoo,-0.6,73.0833,29.59,76,75,5.22,MV,1715403936
194,saint-francois,46.4154,3.9054,12.58,94,32,0.51,FR,1715403936
195,pir mahal,30.7667,72.4333,37.24,22,9,1.95,PK,1715403936
196,vorgashor,67.5833,63.95,-5.11,90,97,2.49,RU,1715403936
197,lusambo,-4.9667,23.45,22.68,83,95,0.57,CD,1715403936
198,papatowai,-46.5619,169.4708,9.36,78,96,6.0,NZ,1715403936
199,north bend,43.4065,-124.2243,17.7,88,0,2.57,US,1715403743
200,atvidaberg,58.2015,15.9977,8.66,64,99,0.89,SE,1715403936
201,quirinopolis,-18.4483,-50.4517,19.45,57,76,1.2,BR,1715403758
202,happy valley-goose bay,53.3168,-60.3315,0.17,80,0,1.03,CA,1715403937
203,vilyuysk,63.7553,121.6247,-0.56,50,100,4.02,RU,1715403937
204,qaqortoq,60.7167,-46.0333,-0.07,92,14,1.28,GL,1715403937
205,sao felix do xingu,-6.6447,-51.995,22.76,92,65,0.85,BR,1715403937
206,inhambane,-23.865,35.3833,23.99,88,20,0.0,MZ,1715403937
207,prince rupert,54.3161,-130.3201,9.05,87,100,7.2,CA,1715403764
208,linshui,36.4247,114.2047,29.28,8,99,1.46,CN,1715403833
209,katsuura,35.1333,140.3,20.47,68,41,8.7,JP,1715403895
210,vilyuchinsk,52.9306,158.4028,6.15,75,100,2.51,RU,1715403938
211,hammerfest,70.6634,23.6821,3.25,87,100,3.09,NO,1715403938
212,tamanrasset,22.785,5.5228,19.95,12,0,1.54,DZ,1715403743
213,minas de marcona,-15.2119,-75.1103,13.03,91,78,5.65,PE,1715403938
214,almodovar del campo,38.7094,-4.1791,13.04,61,26,1.22,ES,1715403938
215,port mathurin,-19.6833,63.4167,25.44,80,20,10.87,MU,1715403938
216,vila franca do campo,37.7167,-25.4333,18.27,99,83,2.21,PT,1715403938
217,porto franco,-6.3383,-47.3992,25.51,78,100,1.48,BR,1715403730
218,bonthe,7.5264,-12.505,25.41,79,99,1.25,SL,1715403939
219,xapuri,-10.6517,-68.5044,25.48,76,88,1.14,BR,1715403939
220,titlagarh,20.3,83.15,38.65,28,0,4.42,IN,1715403895
221,kenora,49.8167,-94.4337,11.54,58,20,2.57,CA,1715403939
222,nadi,-17.8,177.4167,26.0,57,40,7.2,FJ,1715403785
223,palikir - national government center,6.9248,158.1611,27.41,83,100,4.12,FM,1715403939
224,nizhnyaya tavda,57.6731,66.1725,7.97,52,10,7.42,RU,1715403939
225,murray bridge,-35.1167,139.2667,17.97,53,1,3.98,AU,1715403939
226,porto novo,6.4965,2.6036,27.55,80,30,2.47,BJ,1715403939
227,brezina,33.0989,1.2608,17.22,27,100,1.56,DZ,1715403939
228,peace river,56.2501,-117.286,22.17,19,75,7.72,CA,1715403710
229,constantia,44.1833,28.65,11.5,59,60,6.38,RO,1715403845
230,lagos,6.5833,3.75,26.43,87,21,1.3,NG,1715403479
231,margate,51.3813,1.3862,12.17,94,99,1.34,GB,1715403688
232,loboc,9.6383,124.0348,31.78,62,64,2.32,PH,1715403940
233,turkmenbasy,40.0222,52.9552,24.43,23,0,4.12,TM,1715403940
234,meadow lake,34.8014,-106.5436,17.43,70,100,8.63,US,1715403940
235,robertsport,6.7533,-11.3686,27.7,81,100,1.74,LR,1715403940
236,nanchong,30.7951,106.0847,22.43,58,100,4.0,CN,1715403667
237,ust'-kut,56.7938,105.7672,14.69,25,94,3.13,RU,1715403940
238,arraial do cabo,-22.9661,-42.0278,23.46,87,61,2.83,BR,1715403689
239,vetluzhskiy,58.3902,45.4654,0.02,94,100,1.34,RU,1715403941
240,kruisfontein,-34.0033,24.7314,13.82,83,50,5.52,ZA,1715403941
241,kapuskasing,49.4169,-82.4331,12.05,46,100,4.12,CA,1715403662
242,merizo village,13.2658,144.6691,31.31,81,55,5.61,GU,1715403941
243,malagon,39.2139,-4.0005,10.94,47,43,1.92,ES,1715403941
244,alofi,-19.0595,-169.9187,24.94,73,20,4.63,NU,1715403941
245,verkh-chebula,56.0308,87.6218,17.1,60,100,3.97,RU,1715403941
246,estherville,43.4016,-94.8328,11.96,72,0,4.63,US,1715403942
247,nemuro,43.3236,145.575,7.09,76,74,4.77,JP,1715403904
248,extrema,-22.8547,-46.3183,16.82,77,79,2.43,BR,1715403647
249,sarakhs,36.5449,61.1577,20.45,45,0,1.75,IR,1715403738
250,coquimatlan,19.2,-103.8,20.51,74,51,0.54,MX,1715403942
251,hadibu,12.65,54.0333,29.36,69,96,0.57,YE,1715403942
252,afaahiti,-17.75,-149.2833,26.93,83,26,5.91,PF,1715403942
253,strezhevoy,60.7333,77.5889,4.98,62,81,4.02,RU,1715403704
254,pangody,65.85,74.4859,0.27,98,8,2.61,RU,1715403943
255,phu kradueng,16.8843,101.8847,30.92,60,100,1.04,TH,1715403943
256,andergrove,-21.0833,149.1833,27.49,72,8,5.74,AU,1715403943
257,usogorsk,63.4106,48.6872,-2.41,87,57,3.29,RU,1715403943
258,nagqu,31.5,92.0,5.93,7,20,5.08,CN,1715403918
259,sulya,12.5667,75.3833,35.19,46,100,1.37,IN,1715403889
260,deming,32.2687,-107.7586,20.94,11,0,4.12,US,1715403855
261,sur,22.5667,59.5289,30.94,57,0,4.45,OM,1715403943
262,port macquarie,-31.4333,152.9167,17.16,85,100,0.77,AU,1715403653
263,tadine,-21.55,167.8833,22.83,67,79,6.87,NC,1715403943
264,mossel bay,-34.1831,22.146,11.96,75,45,3.85,ZA,1715403944
265,puerto ayora,-0.7393,-90.3518,23.08,95,87,1.59,EC,1715403944
266,tolanaro,-25.0319,46.9987,23.04,83,20,5.14,MG,1715403944
267,saipan,15.1355,145.701,31.39,66,20,8.23,MP,1715403923
268,asekeyevo,53.5742,52.7972,8.71,50,81,8.49,RU,1715403944
269,srandakan,-7.9386,110.2506,28.61,76,35,6.72,ID,1715403944
270,humberto de campos,-2.5983,-43.4611,23.74,97,70,0.61,BR,1715403811
271,gadzhiyevo,69.2551,33.3362,0.85,83,100,7.19,RU,1715403944
272,queenstown,-31.8976,26.8753,7.66,76,0,0.8,ZA,1715403945
273,akjoujt,19.6969,-14.4164,30.09,14,100,5.28,MR,1715403945
274,keelung,25.1283,121.7419,30.94,70,100,3.72,TW,1715403711
275,mbanza-ngungu,-5.25,14.8667,21.15,98,99,1.27,CD,1715403945
276,oranjemund,-28.55,16.4333,13.57,89,0,3.45,NA,1715403945
277,timimoun,29.2639,0.231,22.21,16,0,5.66,DZ,1715403945
278,moyynkum,44.2914,72.9469,18.82,70,100,4.97,KZ,1715403945
279,pizzo,38.7384,16.1658,16.3,94,75,0.51,IT,1715403945
280,la punta,-33.1837,-66.3127,7.19,64,39,4.86,AR,1715403945
281,nadym,65.5333,72.5167,-1.69,85,13,3.29,RU,1715403946
282,antalaha,-14.9003,50.2788,25.15,73,90,4.03,MG,1715403720
283,carnarvon,-24.8667,113.6333,29.82,33,0,2.26,AU,1715403946
284,rosenberg,49.0748,19.3075,13.72,78,33,0.84,SK,1715403690
285,saudarkrokur,65.7461,-19.6394,7.77,87,100,5.85,IS,1715403661
286,santos dumont,-21.4567,-43.5525,16.02,94,35,0.74,BR,1715403797
287,talnakh,69.4865,88.3972,-4.89,75,47,1.13,RU,1715403946
288,nar'yan-mar,67.6713,53.087,-3.27,88,43,3.13,RU,1715403946
289,guanica,17.9716,-66.908,26.88,72,2,3.2,PR,1715403946
290,newman,37.3138,-121.0208,22.99,58,0,1.79,US,1715403946
291,uturoa,-16.7333,-151.4333,28.01,78,3,3.75,PF,1715403947
292,coruripe,-10.1256,-36.1756,23.79,89,3,2.12,BR,1715403947
293,bakanas,44.8081,76.2772,16.32,78,100,6.51,KZ,1715403947
294,caleta olivia,-46.4393,-67.5281,5.52,67,86,3.37,AR,1715403947
295,new norfolk,-42.7826,147.0587,15.51,57,77,1.05,AU,1715403947
296,miracema do tocantins,-9.5618,-48.3967,25.38,65,96,1.19,BR,1715403947
297,zarghun shahr,32.8473,68.4457,19.75,25,4,5.62,AF,1715403947
298,pyinmana,19.7333,96.2167,38.5,29,0,3.37,MM,1715403875
299,lata,40.1629,-8.3327,13.84,93,0,0.25,PT,1715403947
300,nuevitas,21.5453,-77.2644,24.86,85,100,2.6,CU,1715403948
301,kutulik,53.3508,102.7839,20.07,25,51,3.06,RU,1715403948
302,dhari,21.3333,71.0167,32.08,39,0,1.3,IN,1715403948
303,labuan,5.2767,115.2417,32.2,74,20,2.24,MY,1715403948
304,talpa de allende,20.3833,-104.8167,20.77,34,20,2.46,MX,1715403948
305,okha,53.5739,142.9478,3.47,70,29,6.26,RU,1715403904
306,st. john's,47.5649,-52.7093,1.2,96,100,5.81,CA,1715403948
307,loen,7.7601,168.2307,28.47,76,100,5.28,MH,1715403948
308,ancud,-41.8697,-73.8203,7.1,90,88,3.66,CL,1715403948
309,bol'sherech'ye,56.0925,74.6272,11.37,32,36,5.17,RU,1715403949
310,sitka,57.0531,-135.33,8.94,61,0,3.09,US,1715403949
311,ambovombe,-25.1667,46.0833,21.61,68,0,3.43,MG,1715403949
312,albertina,-22.2008,-46.6158,16.35,78,22,2.14,BR,1715403671
313,nha trang,12.25,109.1833,32.0,61,57,3.82,VN,1715403933
314,barra do corda,-5.5,-45.25,23.48,84,91,0.48,BR,1715403840
315,ubari,26.5921,12.7805,17.39,45,12,3.21,LY,1715403949
316,pasuquin,18.3328,120.6177,32.97,75,20,4.12,PH,1715403949
317,akrehamn,59.2667,5.1833,10.23,81,100,5.14,NO,1715403949
318,honcho,35.6931,139.9833,27.4,53,40,12.86,JP,1715403950
319,cherepovets,59.1333,37.9,2.9,60,40,2.0,RU,1715403687
320,mandalgovi,45.7625,106.2708,14.66,16,81,7.67,MN,1715403950
321,mount isa,-20.7333,139.5,28.87,45,40,4.12,AU,1715403950
322,behompy,-23.2496,43.8557,25.96,49,0,0.99,MG,1715403950
323,jiangyou,31.7667,104.7167,20.0,73,100,4.13,CN,1715403828
324,n'zeto,-7.2312,12.8666,25.53,92,91,2.82,AO,1715403857
325,igarka,67.4667,86.5833,-0.55,99,100,5.81,RU,1715403950
326,xique xique,-10.8217,-42.7311,22.99,65,4,4.39,BR,1715403951
327,hamilton,39.1834,-84.5333,13.88,79,100,2.06,US,1715403788
328,bikenibeu village,1.3673,173.1241,30.98,74,40,3.09,KI,1715403951
329,trabzon,40.9167,39.8333,13.05,88,75,4.12,TR,1715403951
330,al kharijah,25.4514,30.5464,26.95,22,12,7.39,EG,1715403951
331,la passe,45.5549,-0.8967,14.43,88,7,3.59,FR,1715403951
332,nirgua,10.1553,-68.5663,20.49,97,100,1.98,VE,1715403951
333,zaragoza,41.6561,-0.8773,16.67,55,0,0.45,ES,1715403905
334,dhaurahra,28.0,81.0833,35.96,30,12,4.11,IN,1715403951
335,brookings,44.3114,-96.7984,12.84,70,0,0.0,US,1715403819
336,sinop,41.7711,34.8709,12.24,85,100,1.57,TR,1715403952
337,andorra,42.5,1.5,13.45,78,7,1.05,AD,1715403952
338,lenino,45.2986,35.7771,14.1,54,75,7.42,UA,1715403952
339,chegdomyn,51.1167,133.0167,14.45,27,100,4.3,RU,1715403952
340,al jawf,29.5,38.75,27.67,12,41,4.18,SA,1715403952
341,shihezi,44.3,86.0333,31.53,12,0,1.34,CN,1715403841
342,norfolk,42.1668,-71.2495,8.11,84,0,0.0,US,1715403952
343,alice springs,-23.7,133.8833,21.75,37,0,7.2,AU,1715403757
344,manturovo,58.3353,44.7619,-0.12,61,100,4.45,RU,1715403953
345,soio,-6.1349,12.3689,26.65,90,100,3.74,AO,1715403953
346,saint-pierre,-21.3393,55.4781,25.82,47,0,2.57,RE,1715403953
347,kununurra,-15.7667,128.7333,31.99,45,40,5.14,AU,1715403953
348,lagdo,9.05,13.7333,27.55,62,89,2.13,CM,1715403953
349,howrah,22.5892,88.3103,33.0,70,75,4.12,IN,1715403912
350,upper hutt,-41.1383,175.0502,11.35,83,12,0.63,NZ,1715403953
351,tazacorte,28.629,-17.9293,19.54,82,100,7.2,ES,1715403954
352,svetlyy,54.675,20.1347,8.03,67,100,2.74,RU,1715403954
353,changyon,38.2508,125.0961,15.01,83,100,3.02,KP,1715403954
354,quellon,-43.1167,-73.6167,3.39,95,9,0.57,CL,1715403954
355,badger,64.8,-147.5333,10.55,28,0,3.6,US,1715403954
356,papao,-17.75,-149.55,27.82,78,11,5.59,PF,1715403954
357,tucuma,-0.1833,-50.05,25.2,93,80,1.2,BR,1715403675
358,tobelo,1.7284,128.0095,29.06,73,68,1.85,ID,1715403954
359,keflavik,64.0049,-22.5624,7.95,100,75,5.14,IS,1715403955
360,kalanchak,46.2562,33.2907,13.91,39,33,3.7,UA,1715403955
361,shiyan,32.6475,110.7781,23.01,65,100,3.05,CN,1715403841
362,zhaobaoshan,29.9695,121.6875,23.01,90,100,2.93,CN,1715403852
363,puerto deseado,-47.7503,-65.8938,3.04,81,61,3.62,AR,1715403955
364,preobrazheniye,42.9019,133.9064,13.24,64,100,3.38,RU,1715403955
365,kirakira,-10.4544,161.9205,26.81,85,42,4.0,SB,1715403955
366,lozova,48.8894,36.3176,10.81,55,95,3.86,UA,1715403955
367,karratha,-20.7377,116.8463,30.63,24,86,7.32,AU,1715403955
368,pacov,49.4708,15.0017,9.91,86,57,0.63,CZ,1715403956
369,puerto ayacucho,5.6639,-67.6236,23.27,97,100,1.41,VE,1715403956
370,santa ana,33.7456,-117.8678,17.72,81,100,3.6,US,1715403167
371,yuzhno-kurilsk,44.0306,145.8556,7.99,76,97,3.23,RU,1715403956
372,sete,43.4018,3.6966,14.41,71,5,3.66,FR,1715403956
373,kabinda,-6.1333,24.4833,21.46,82,100,2.05,CD,1715403956
374,kargopol',61.5071,38.9456,0.88,80,100,5.34,RU,1715403956
375,al bayda,32.7627,21.7551,13.07,90,77,7.45,LY,1715403956
376,mana,5.6592,-53.7767,25.4,91,100,3.25,GF,1715403956
377,santa cruz,-17.8,-63.1667,23.7,94,75,2.57,BO,1715403957
378,yanjiang,30.1211,104.6481,19.24,83,100,4.92,CN,1715403853
379,barleben,52.2019,11.6177,12.11,91,99,2.41,DE,1715403957
380,sao joao da barra,-21.6403,-41.0511,23.22,92,22,2.06,BR,1715403918
381,ariquemes,-9.9133,-63.0408,23.43,81,11,0.02,BR,1715403603
382,goundi,9.3627,17.366,29.54,30,83,2.6,TD,1715403957
383,juan griego,11.0817,-63.9655,26.25,88,100,4.41,VE,1715403957
384,rocky mountain house,52.3668,-114.9188,15.06,33,56,2.57,CA,1715403711
385,ceeldheer,3.8488,47.1806,29.36,70,56,5.87,SO,1715403957
386,kudahuvadhoo,2.6708,72.8944,29.59,74,93,4.68,MV,1715403958
387,shantobe,52.4581,68.1839,9.75,36,65,5.83,KZ,1715403958
388,sungai penuh,-2.0833,101.3833,24.78,83,83,1.19,ID,1715403810
389,kuala terengganu,5.3302,103.1408,32.97,66,20,2.24,MY,1715403958
390,abra pampa,-22.7205,-65.697,10.18,22,7,3.02,AR,1715403958
391,al burayqah,30.4062,19.5739,18.22,75,0,4.28,LY,1715403958
392,mogadishu,2.0371,45.3438,25.93,94,0,3.6,SO,1715403958
393,laguna,38.421,-121.4238,24.82,50,0,1.54,US,1715403958
394,naifaru,5.4444,73.3657,29.58,71,89,2.58,MV,1715403958
395,arkhangel'sk,64.5401,40.5433,0.07,80,75,5.0,RU,1715403919
396,klyuchi,52.2667,79.1667,16.26,36,100,4.5,RU,1715403959
397,spring creek,40.7266,-115.5859,10.49,49,20,1.7,US,1715403959
398,chibougamau,49.9168,-74.3659,4.79,75,0,0.0,CA,1715403959
399,pacific grove,36.6177,-121.9166,14.68,84,0,2.57,US,1715403959
400,kaoma,-14.7833,24.8,14.29,71,0,2.27,ZM,1715403741
401,susuman,62.7833,148.1667,3.32,73,100,1.34,RU,1715403959
402,tres palos,18.1833,-101.6167,21.07,77,75,1.09,MX,1715403959
403,bengkulu,-3.8004,102.2655,29.83,71,93,3.06,ID,1715403959
404,tual,-5.6667,132.75,27.96,79,27,6.47,ID,1715403960
405,pontes e lacerda,-15.2261,-59.3353,21.67,66,43,0.89,BR,1715403706
406,portland,45.5234,-122.6762,22.32,55,0,1.54,US,1715403960
407,acapulco de juarez,16.8634,-99.8901,24.9,88,20,1.54,MX,1715403960
408,fort abbas,29.1925,72.8536,37.85,20,0,2.69,PK,1715403960
409,touros,-5.1989,-35.4608,24.25,84,59,3.33,BR,1715403921
410,antigonish,45.6169,-61.9986,5.08,93,74,0.66,CA,1715403904
411,polyarnyy,69.1989,33.4478,0.65,83,100,7.34,RU,1715403960
412,wanning,18.8003,110.3967,31.62,61,100,4.54,CN,1715403844
413,zapala,-38.8992,-70.0544,2.7,81,83,1.1,AR,1715403960
414,boende,-0.2167,20.8667,22.29,92,48,1.04,CD,1715403961
415,lihue,21.9789,-159.3672,25.58,79,20,4.63,US,1715403961
416,toliara,-23.35,43.6667,24.05,62,0,2.84,MG,1715403961
417,dalai,45.5,124.3,12.96,53,65,10.78,CN,1715403961
418,dungarpur,23.8333,73.7167,35.71,30,1,0.54,IN,1715403961
419,namdrik,5.5994,168.1028,29.17,70,100,3.88,MH,1715403961
420,sola,-13.8833,167.55,26.56,63,96,7.91,VU,1715403678
421,ebon,4.582,168.6964,28.85,73,96,4.14,MH,1715403961
422,naha,26.2125,127.6811,27.38,67,75,5.14,JP,1715403961
423,villanueva,15.3167,-88.0,29.55,79,75,3.09,HN,1715403961
424,boguchany,58.3814,97.4531,18.25,39,100,2.68,RU,1715403962
425,kill devil hills,36.0307,-75.676,14.99,88,100,8.23,US,1715403850
426,vilhena,-12.7406,-60.1458,20.4,77,12,0.96,BR,1715403746
427,fada,9.5667,8.3,22.84,82,98,1.07,NG,1715403962
428,fortuna,40.5982,-124.1573,15.92,78,0,0.0,US,1715403962
429,lawton,34.6087,-98.3903,17.95,74,20,2.06,US,1715403669
430,veraval,20.9,70.3667,30.21,65,0,3.63,IN,1715403963
431,alaghsas,17.0187,8.0168,30.87,16,17,4.96,NE,1715403963
432,oktyabr'skoye,43.0645,44.7417,9.27,93,75,2.0,RU,1715403963
433,wuhai,39.6647,106.8122,23.53,12,0,6.89,CN,1715403824
434,dapa,9.7594,126.0531,29.09,74,42,3.93,PH,1715403963
435,murghob,38.1702,73.9667,5.68,42,100,1.86,TJ,1715403963
436,kudat,6.8837,116.8477,34.05,66,20,2.24,MY,1715403679
437,sinjar,36.3209,41.8754,23.63,32,100,3.07,IQ,1715403725
438,malihabad,26.9167,80.7167,31.95,26,0,2.74,IN,1715403963
439,port augusta,-32.5,137.7667,19.38,48,100,6.38,AU,1715403762
440,la sarre,48.8002,-79.1996,7.78,58,37,2.4,CA,1715403824
441,porbandar,21.6422,69.6093,31.99,58,40,4.12,IN,1715403902
442,bhamo,24.2667,97.2333,35.84,33,12,0.25,MM,1715403873
443,tra mhor,52.1624,-7.1524,11.72,73,100,0.45,IE,1715403964
444,motta sant'anastasia,37.5131,14.9659,16.55,84,40,2.06,IT,1715403964
445,phanat nikhom,13.4458,101.1844,36.71,100,89,1.01,TH,1715403964
446,plastun,44.7561,136.2939,6.81,92,100,2.38,RU,1715403964
447,bage,-31.3314,-54.1069,13.88,100,100,3.6,BR,1715403964
448,fortuna foothills,32.6578,-114.4119,27.05,18,0,2.57,US,1715403964
449,sovetskaya gavan',48.9723,140.2878,6.17,87,100,4.28,RU,1715403965
450,tibu,8.639,-72.7358,23.59,99,100,1.09,CO,1715403965
451,shimoda,34.6667,138.95,25.06,60,22,4.95,JP,1715403911
452,moshkovo,55.3053,83.6104,16.8,48,98,3.43,RU,1715403965
453,santana,-0.0583,-51.1817,28.1,89,40,1.03,BR,1715403965
454,rouissat,31.9243,5.3502,19.04,39,0,3.09,DZ,1715403965
455,arteche,12.2645,125.4048,31.61,56,96,3.6,PH,1715403965
456,faya-largeau,17.9257,19.1043,30.36,18,3,9.39,TD,1715403740
457,sharm el-sheikh,27.8518,34.305,24.08,53,0,3.09,EG,1715403965
458,okhotsk,59.3833,143.3,0.66,100,100,2.59,RU,1715403965
459,mili,6.0815,171.735,26.74,87,100,7.45,MH,1715403966
460,aswan,24.0934,32.907,27.61,12,0,0.0,EG,1715403966
461,amga,60.8953,131.9608,7.38,32,90,2.25,RU,1715403966
462,mugia,43.1041,-9.2179,12.73,88,81,3.58,ES,1715403966
463,colonia,50.9333,6.95,13.8,88,0,1.03,DE,1715403721
464,xinmin,41.9908,122.8253,20.24,27,3,9.47,CN,1715403847
465,tomohon,1.3346,124.8392,28.52,77,87,1.09,ID,1715403860
466,safi,32.1667,-8.8333,16.34,91,99,3.66,MA,1715403966
467,rio grande,-32.035,-52.0986,17.42,89,100,3.21,BR,1715403872
468,puerto armuelles,8.2833,-82.8667,26.72,77,100,1.79,PA,1715403967
469,rozdilna,46.8433,30.0792,14.08,51,52,2.96,UA,1715403967
470,djambala,-2.5447,14.7533,21.92,89,85,1.13,CG,1715403967
471,colchani,-20.3,-66.9333,7.62,40,23,3.3,BO,1715403967
472,sigli,5.3848,95.9609,30.42,67,100,3.01,ID,1715403825
473,klaksvik,62.2266,-6.589,9.51,99,100,6.81,FO,1715403967
474,bubaque,11.2833,-15.8333,26.33,78,91,4.81,GW,1715403967
475,whakatane,-37.9585,176.9854,13.62,69,41,1.79,NZ,1715403967
476,waingapu,-9.6567,120.2641,30.14,67,46,7.32,ID,1715403860
477,saurimo,-9.6608,20.3916,17.17,63,98,1.58,AO,1715403968
478,gore,-46.1028,168.9436,10.18,75,78,2.59,NZ,1715403968
479,nuriootpa,-34.4833,139.0,19.2,39,9,3.0,AU,1715403968
480,korostyshiv,50.3172,29.0563,11.33,85,100,3.7,UA,1715403968
481,chifeng,42.2683,118.9636,17.09,30,32,12.75,CN,1715403681
482,mcalester,34.9334,-95.7697,15.31,88,0,0.0,US,1715403853
483,fort-shevchenko,44.5086,50.263,16.59,50,37,7.18,KZ,1715403968
484,alvorada,-12.48,-49.1247,21.96,58,0,1.08,BR,1715403799
485,ngambe,4.2333,10.6167,22.76,99,100,0.32,CM,1715403968
486,trincomalee,8.5711,81.2335,29.58,74,80,3.77,LK,1715403968
487,kirkland lake,48.1446,-80.0377,7.16,70,100,0.51,CA,1715403703
488,hasaki,35.7333,140.8333,27.38,66,47,9.95,JP,1715403969
489,la'ie,21.6477,-157.9253,25.98,83,42,0.45,US,1715403969
490,kenai,60.5544,-151.2583,7.3,57,100,8.23,US,1715403969
491,marsa alam,25.0757,34.8918,29.33,36,64,2.67,EG,1715403969
492,aioun,16.6614,-9.6149,31.66,7,90,0.73,MR,1715403969
493,viedma,-40.8135,-62.9967,7.01,90,2,2.76,AR,1715403555
494,murun-kuren,49.6342,100.1625,21.12,16,59,2.63,MN,1715403969
495,mount gambier,-37.8333,140.7667,19.91,49,28,1.44,AU,1715403969
496,hami,42.8,93.45,29.91,9,18,2.37,CN,1715403969
497,sao miguel do araguaia,-13.275,-50.1628,22.41,53,0,1.59,BR,1715403970
498,marsabit,2.3284,37.9899,18.95,81,89,6.16,KE,1715403742
499,hau-ri,41.2006,129.4703,20.36,59,77,7.72,KP,1715403970
500,sassandra,4.95,-6.0833,26.78,87,88,2.31,CI,1715403677
501,forecariah,9.4306,-13.0881,27.13,84,93,0.43,GN,1715403970
502,shilka,51.85,116.0333,5.57,91,100,4.59,RU,1715403914
503,kapa'a,22.0752,-159.319,25.99,84,20,4.63,US,1715403970
504,nawa,27.0167,75.0,38.35,18,6,4.89,IN,1715403970
505,caleta de carquin,-11.0925,-77.6267,17.57,94,36,5.29,PE,1715403970
506,cinisi,38.1562,13.1073,17.7,88,20,1.54,IT,1715403971
507,parauna,-16.9478,-50.4486,18.05,57,39,1.54,BR,1715403971
508,luwuk,-0.9516,122.7875,28.52,71,23,3.08,ID,1715403850
509,mastung,29.7994,66.845,23.26,21,0,2.89,PK,1715403971
510,muynoq,43.7683,59.0214,18.97,29,15,1.52,UZ,1715403971
511,vila velha,-20.3297,-40.2925,23.97,100,75,0.0,BR,1715403892
512,padrauna,26.9025,83.9819,35.42,32,0,5.09,IN,1715403860
513,east london,-33.0153,27.9116,14.52,72,0,4.63,ZA,1715403971
514,phan thiet,10.9333,108.1,34.16,54,58,7.4,VN,1715403948
515,thunder bay,48.4001,-89.3168,7.99,100,75,2.57,CA,1715403814
516,xining,36.6167,101.7667,15.16,44,100,1.21,CN,1715403702
517,ulanhot,46.0833,122.0833,8.66,65,100,10.79,CN,1715403972
518,mossendjo,-2.9506,12.7261,22.46,100,98,0.54,CG,1715403972
519,gamba,-2.65,10.0,24.7,96,67,1.74,GA,1715403972
520,alo,7.4178,6.7371,25.62,92,97,1.02,NG,1715403972
521,ulaangom,49.9811,92.0667,21.21,22,57,2.3,MN,1715403676
522,gamboula,4.1178,15.1393,21.79,91,85,0.54,CF,1715403973
523,talara,-4.5772,-81.2719,19.46,90,60,6.94,PE,1715403973
524,stoughton,42.1251,-71.1023,7.94,84,83,2.3,US,1715403725
525,atar,20.5169,-13.0499,31.41,14,87,4.81,MR,1715403973
526,bamboo flat,11.7,92.7167,33.05,70,40,4.63,IN,1715403973
527,itoman,26.1247,127.6694,27.43,66,75,5.14,JP,1715403973
528,sabratah,32.7933,12.4885,17.56,79,0,2.2,LY,1715403973
529,shalkar,47.8288,59.6258,15.92,29,91,4.51,KZ,1715403973
530,vidalia,32.2177,-82.4135,21.97,68,0,3.09,US,1715403974
531,gaigeturi,33.4644,126.3183,24.03,50,0,9.26,KR,1715403974
532,maintirano,-18.0667,44.0167,25.45,64,71,2.77,MG,1715403974
533,santiago de cao,-7.9589,-79.2392,18.07,88,100,3.09,PE,1715403974
534,floro,61.5996,5.0328,9.98,76,100,5.14,NO,1715403974
535,akhmet'a,42.0311,45.2075,15.29,94,99,1.19,GE,1715403974
536,kiselevsk,53.99,86.6621,15.43,86,100,3.32,RU,1715403974
537,hue,16.4667,107.6,33.06,62,20,2.57,VN,1715403932
538,valparaiso,-33.0393,-71.6273,11.19,87,0,1.54,CL,1715403963
539,laramie,41.3114,-105.5911,3.21,79,0,2.57,US,1715403975
540,castillos,-34.1667,-53.8333,10.63,93,85,1.36,UY,1715403975
541,waddan,29.1614,16.139,15.67,77,0,3.46,LY,1715403975
542,cedral,23.8,-100.7333,24.33,37,43,4.65,MX,1715403975
543,horta,38.5333,-28.6333,17.23,96,94,6.26,PT,1715403825
544,brak,27.5496,14.2714,18.03,51,3,4.28,LY,1715403975
545,itaituba,-4.2761,-55.9836,23.98,99,53,0.68,BR,1715403975
546,kalamata,37.0389,22.1142,18.39,64,40,0.89,GR,1715403975
547,dunedin,-45.8742,170.5036,9.89,73,69,4.02,NZ,1715403676
548,naze,28.3667,129.4833,23.51,68,93,4.53,JP,1715403882
549,inarajan village,13.2736,144.7484,31.54,81,47,5.71,GU,1715403976
550,voznesenskoye,54.89,42.7569,5.69,86,100,4.92,RU,1715403976
551,scarborough,54.2797,-0.4044,13.14,88,16,2.17,GB,1715403708
552,rundu,-17.9333,19.7667,12.48,44,1,1.85,NA,1715403976
553,mlangali,-9.7833,34.5167,14.67,89,20,1.52,TZ,1715403976
554,tiznit,29.5833,-9.5,16.43,86,99,1.28,MA,1715403976
555,corn island,12.1694,-83.0418,28.52,82,80,6.34,NI,1715403976
556,jora,26.3333,77.8167,38.45,21,5,2.39,IN,1715403977
557,armacao de buzios,-22.7469,-41.8817,23.03,91,39,2.54,BR,1715403977
558,east ballina,-28.8667,153.5833,18.78,88,100,2.1,AU,1715403977
559,ndola,-12.9587,28.6366,16.0,83,7,2.05,ZM,1715403977
560,qingdao,36.0986,120.3719,20.78,46,99,2.0,CN,1715403715
561,kavaratti,10.5669,72.642,30.02,70,90,4.28,IN,1715403977
562,carutapera,-1.195,-46.02,24.53,95,50,0.91,BR,1715403977
563,hinatuan,8.3722,126.3342,31.09,63,60,2.88,PH,1715403977
564,bom jesus,-9.0744,-44.3586,18.78,49,62,0.21,BR,1715403977
565,belfast,54.5833,-5.9333,12.49,87,82,3.6,GB,1715403978
566,at taj,24.2049,23.2857,21.42,28,5,5.77,LY,1715403978
567,dryden,49.7833,-92.7503,7.16,81,0,3.09,CA,1715403978
568,besisahar,28.2313,84.3761,21.92,72,78,1.15,NP,1715403978
569,baiao,-2.7906,-49.6717,23.54,99,93,0.93,BR,1715403692
570,reggane,26.7158,0.1714,26.22,15,100,7.21,DZ,1715403978
571,kostanay,53.1667,63.5833,9.16,34,0,8.0,KZ,1715403722
572,cuito,-12.3833,16.9333,12.29,62,0,2.56,AO,1715403978
573,pingzhuang,42.0372,119.2889,17.5,29,17,12.17,CN,1715403978
574,hirara,24.8,125.2833,28.15,65,75,4.63,JP,1715403979
575,amahai,-3.3333,128.9167,28.47,76,95,2.18,ID,1715403840
576,manokwari,-0.8667,134.0833,27.44,82,98,0.71,ID,1715403979
577,bardai,11.65,7.2333,26.01,67,78,5.4,NG,1715403979
